City,Lat,Lng,Max Temp,Humidity,Cloudiness,Wind Speed,Country,Date
kavieng,-2.5744,150.7967,81.16,76,71,7.49,PG,1615823932
aksu,41.1231,80.2644,58.01,28,100,14.79,CN,1615823932
bluff,-46.6,168.3333,51.01,92,89,7.0,NZ,1615823932
ponta delgada,38.7333,-28.2667,62.6,88,40,9.22,PT,1615823933
jamestown,42.097,-79.2353,28.99,35,1,10.31,US,1615823933
vostok,46.4856,135.8833,28.15,76,100,3.51,RU,1615823933
puerto ayora,36.5939,-6.233,73.4,40,0,3.44,ES,1615823933
mount gambier,53.6597,-1.8537,52.0,79,79,1.99,GB,1615823934
bengkulu,-3.8004,102.2655,78.4,82,87,3.62,ID,1615823934
provideniya,64.3833,-173.3,7.23,96,60,5.64,RU,1615823935
mgandu,-5.95,34.1333,67.08,79,33,4.32,TZ,1615823935
namibe,-15.1961,12.1522,80.6,69,75,12.66,AO,1615823935
dickinson,29.4608,-95.0513,69.01,94,90,4.92,US,1615823936
komsomolskiy,40.4272,71.7189,37.4,70,40,2.3,UZ,1615823936
njombe,-9.3333,34.7667,59.32,96,14,2.95,TZ,1615823936
bitung,1.4451,125.1824,78.8,89,40,4.18,ID,1615823937
marawi,7.9986,124.2928,75.99,92,89,5.99,PH,1615823937
mataura,-46.1927,168.8643,51.01,92,95,7.0,NZ,1615823937
ancud,-41.8697,-73.8203,62.01,77,75,2.3,CL,1615823938
rikitea,-23.1203,-134.9692,80.58,71,45,1.52,PF,1615823938
ganzhou,28.8184,115.4327,67.44,93,98,5.32,CN,1615823938
hammerfest,70.6634,23.6821,28.4,80,40,20.71,NO,1615823939
butembo,0.15,29.2833,68.67,65,66,1.01,CD,1615823939
aljezur,37.3191,-8.8033,66.83,54,97,4.63,PT,1615823939
khatanga,71.9667,102.5,-21.32,96,100,9.86,RU,1615823940
acapulco,16.8634,-99.8901,78.8,78,20,2.17,MX,1615823737
punta arenas,8.9897,125.34,76.12,90,23,6.2,PH,1615823940
sioux lookout,42.7333,-96.2336,34.0,93,90,12.66,US,1615823941
port lincoln,-7.0349,29.7638,78.4,68,0,2.1,CD,1615823941
busselton,-33.65,115.3333,57.99,59,0,7.61,AU,1615823941
hermanus,-34.4187,19.2345,64.0,90,97,7.74,ZA,1615823941
eureka,40.8021,-124.1637,45.0,74,0,8.01,US,1615823942
cidreira,-30.1811,-50.2056,76.14,72,38,9.86,BR,1615823942
lyubymivka,46.8106,33.5686,45.16,62,42,12.19,UA,1615823943
saint-philippe,-21.3585,55.7679,82.4,65,0,1.14,RE,1615823943
matara,5.9485,80.5353,78.17,84,78,5.82,LK,1615823943
hithadhoo,-0.6,73.0833,84.16,65,100,6.04,MV,1615823944
hobart,-42.8794,147.3294,51.8,66,40,1.14,AU,1615823944
auki,-8.7676,160.7034,75.47,80,100,3.13,SB,1615823944
rudnogorsk,57.2639,103.7519,5.02,95,100,4.27,RU,1615823944
kapaa,22.0752,-159.319,69.8,94,20,5.75,US,1615823945
hofn,64.2539,-15.2082,37.4,93,90,5.75,IS,1615823945
yellowknife,62.456,-114.3525,-6.0,84,20,8.05,CA,1615823945
camopi,3.1655,-52.3158,83.7,74,90,4.14,GF,1615823946
victoria,22.2855,114.1577,73.0,85,72,1.01,HK,1615823905
thompson,55.7435,-97.8558,30.2,51,75,14.97,CA,1615823938
port elizabeth,-7.0349,29.7638,78.4,68,0,2.1,CD,1615823941
qaanaaq,77.484,-69.3632,-7.24,64,0,6.53,GL,1615823947
tevriz,57.509,72.4042,18.5,93,100,6.89,RU,1615823947
minsk,53.9,27.5667,41.0,52,0,4.47,BY,1615823947
ushuaia,-54.8,-68.3,44.6,81,40,37.98,AR,1615823750
ribeira grande,42.7461,-8.4439,70.0,48,20,8.05,ES,1615823948
san vicente,13.3034,-4.8956,99.41,10,0,10.02,ML,1615823948
cape town,-36.413,-71.9028,57.2,100,90,8.05,CL,1615823948
vaini,-21.2,-175.2,73.4,94,75,1.14,TO,1615823949
korla,41.7597,86.1469,49.41,37,0,22.15,CN,1615823949
macenta,8.5435,-9.471,97.79,21,7,2.53,GN,1615823788
beyneu,45.3167,55.2,32.22,50,0,13.0,KZ,1615823949
bredasdorp,-34.5322,20.0403,69.8,60,91,8.05,ZA,1615823950
kalmunai,7.4167,81.8167,79.12,79,0,6.17,LK,1615823950
nizhniy odes,45.3926,39.2364,53.6,54,20,15.66,RU,1615823950
maba,24.6841,113.5984,69.82,78,35,2.44,CN,1615823951
hay river,52.0705,-3.1274,55.99,67,35,14.61,GB,1615823951
leh,34.1667,77.5833,26.24,43,45,3.62,IN,1615823901
khorixas,-20.3667,14.9667,82.54,44,96,6.29,NA,1615823952
brae,60.3964,-1.353,42.8,70,40,9.22,GB,1615823952
olafsvik,64.8945,-23.7142,39.34,89,100,22.57,IS,1615823952
kahului,20.8947,-156.47,66.0,77,1,5.82,US,1615823953
kamaishi,39.2667,141.8833,40.93,67,0,9.46,JP,1615823953
mercedes,-34.6515,-59.4307,80.01,51,86,1.99,AR,1615823953
hilo,19.7297,-155.09,66.0,88,1,4.61,US,1615823954
cheyenne,41.14,-104.8203,21.0,93,90,6.91,US,1615823677
vanimo,-2.6741,141.3028,78.17,87,100,4.16,PG,1615823954
shakhtinsk,49.71,72.5872,-9.4,70,0,4.47,KZ,1615823954
sorland,67.667,12.6934,37.4,65,20,4.61,NO,1615823955
albany,42.6001,-73.9662,24.01,27,0,4.0,US,1615823953
beringovskiy,63.05,179.3167,-6.09,81,54,8.34,RU,1615823955
half moon bay,6.3807,-10.6953,82.4,78,75,4.61,LR,1615823956
nikolskoye,59.7035,30.7861,35.6,87,90,11.18,RU,1615823956
san ciro de acosta,13.3034,-4.8956,99.41,10,0,10.02,ML,1615823948
saskylakh,71.9167,114.0833,-24.12,94,100,3.62,RU,1615823956
kaitangata,-46.2817,169.8464,53.01,79,72,17.0,NZ,1615823957
tasiilaq,65.6145,-37.6368,30.2,93,90,52.93,GL,1615823957
ostrovnoy,68.0531,39.5131,24.67,94,100,1.66,RU,1615823957
ifo,6.8144,3.1958,90.82,53,50,8.9,NG,1615823958
hovd,48.0056,91.6419,20.25,51,51,1.28,MN,1615823958
new norfolk,6.6518,-10.5932,82.4,78,75,4.61,LR,1615823958
ketchikan,55.3422,-131.6461,33.8,93,90,19.57,US,1615823959
lebu,-37.6167,-73.65,58.59,80,100,4.32,CL,1615823959
tanout,14.9709,8.8879,98.83,8,3,7.0,NE,1615823959
cotonou,6.3654,2.4183,87.8,70,20,13.8,BJ,1615823960
mezen,65.8522,44.24,27.61,96,100,3.4,RU,1615823960
richards bay,46.8361,-95.9123,30.0,59,90,12.66,US,1615823960
atuona,-9.8,-139.0333,79.3,73,62,15.17,PF,1615823961
aklavik,68.2191,-135.0107,-13.0,77,100,4.61,CA,1615823961
saint-georges,12.0564,-61.7485,84.2,70,40,20.71,GD,1615823961
krasnyy yar,54.5678,31.4333,32.54,86,86,2.89,RU,1615823962
pangnirtung,66.1451,-65.7125,-23.8,76,1,5.75,CA,1615823962
necochea,-38.5473,-58.7368,80.4,41,78,8.88,AR,1615823962
kerman,30.2832,57.0788,62.6,20,0,9.22,IR,1615823963
avarua,-21.2078,-159.775,71.6,100,40,3.44,CK,1615823963
port alfred,-7.0349,29.7638,78.4,68,0,2.1,CD,1615823963
sovetskaya gavan,44.7769,41.1722,34.02,86,98,18.07,RU,1615823964
caravelas,-17.7125,-39.2481,85.78,55,29,8.77,BR,1615823964
castro,-24.7911,-50.0119,78.46,64,27,2.35,BR,1615823964
san cristobal,13.3034,-4.8956,99.41,10,0,10.02,ML,1615823965
nadym,65.5333,72.5167,15.85,95,100,7.23,RU,1615823965
axim,4.8699,-2.2405,85.6,64,36,9.75,GH,1615823965
nuuk,64.1835,-51.7216,26.6,68,75,4.61,GL,1615823966
tuktoyaktuk,69.4541,-133.0374,-11.2,84,90,16.11,CA,1615823966
whitehorse,60.7161,-135.0538,5.0,72,75,16.11,CA,1615823919
olinda,-8.0089,-34.8553,82.4,57,40,13.8,BR,1615823966
benghazi,32.1167,20.0667,61.05,63,21,22.82,LY,1615823967
muros,42.7762,-9.0603,70.0,48,20,8.05,ES,1615823967
skelleftea,64.7507,20.9528,37.4,70,0,4.61,SE,1615823967
banda aceh,25.4833,80.3333,80.44,20,44,5.1,IN,1615823968
kiunga,-6.1219,141.2906,73.33,99,100,1.23,PG,1615823968
bethel,41.3712,-73.414,24.8,24,1,16.11,US,1615823968
bireun,5.203,96.7009,79.48,80,95,3.13,ID,1615823969
mys shmidta,62.0589,48.6201,31.48,97,100,6.2,RU,1615823969
yeppoon,-23.1333,150.7333,75.2,88,90,13.6,AU,1615823969
mar del plata,43.4002,-4.0094,57.99,62,20,5.75,ES,1615823970
waddan,29.1614,16.139,67.62,29,0,16.33,LY,1615823970
fairbanks,64.8378,-147.7164,-2.2,71,90,3.44,US,1615823728
alugan,12.2188,125.4808,79.84,88,8,9.33,PH,1615823970
dunedin,-45.8742,170.5036,55.99,90,68,1.99,NZ,1615823971
yashkul,46.1711,45.3435,38.19,68,100,20.42,RU,1615823971
port keats,-7.0349,29.7638,78.4,68,0,2.1,CD,1615823972
cockburn town,-32.0833,141.0,60.8,41,0,10.36,AU,1615823972
birin,26.8865,88.0718,58.06,46,0,5.03,NP,1615823972
souillac,-20.5167,57.5167,78.8,89,40,8.05,MU,1615823973
saint-augustin,51.226,-58.6502,8.98,82,45,12.73,CA,1615823973
zandvoort,52.3749,4.5341,46.99,81,40,24.16,NL,1615823973
podporozhye,60.9112,34.1706,33.22,98,100,5.57,RU,1615823974
arman,59.7,150.1667,14.81,75,100,5.06,RU,1615823974
mirnyy,62.5353,113.9611,9.86,89,98,11.5,RU,1615823974
anito,12.4497,125.2886,77.45,91,54,7.29,PH,1615823975
east london,65.0,-15.0,30.2,80,75,9.22,IS,1615823975
kapoeta,4.7717,33.5903,83.62,48,46,23.62,SS,1615823975
lata,40.1629,-8.3327,73.0,57,7,1.99,PT,1615823976
torbay,47.6666,-52.7314,30.99,59,75,8.05,CA,1615823976
leningradskiy,69.3833,178.4167,-7.53,90,99,3.36,RU,1615823976
dikson,73.5069,80.5464,-25.22,99,100,8.16,RU,1615823977
aquiraz,-3.9014,-38.3911,84.2,74,75,12.66,BR,1615823977
comodoro rivadavia,-13.6631,-59.7858,78.57,85,94,4.16,BR,1615823977
payo,-3.7508,103.6372,74.52,97,98,1.88,ID,1615823978
airai,-8.9266,125.4092,60.76,95,67,0.36,TL,1615823978
vila franca do campo,42.0304,-8.1588,68.0,35,33,11.99,PT,1615823978
katherine,-14.4667,132.2667,78.8,78,40,6.91,AU,1615823979
isangel,-19.55,169.2667,73.4,94,20,5.5,VU,1615823979
vila velha,42.0304,-8.1588,68.0,35,33,11.99,PT,1615823980
esperance,-33.8667,121.9,59.0,82,0,9.22,AU,1615823980
pilot butte,40.8183,-114.2345,37.4,65,1,5.75,US,1615823980
sarkand,45.41,79.9186,17.94,85,100,2.1,KZ,1615823715
kuusamo,65.9667,29.1833,30.2,80,90,1.14,FI,1615823981
camacha,33.0833,-16.3333,64.4,72,40,16.11,PT,1615823981
norman wells,35.2226,-97.4395,59.0,47,1,13.8,US,1615823856
lamar,33.6668,-95.5836,61.0,76,1,10.36,US,1615823982
qaqortoq,60.7167,-46.0333,41.0,33,75,27.63,GL,1615823982
toamasina,-18.1667,49.3833,80.6,83,40,5.75,MG,1615823982
klaksvik,62.2266,-6.589,41.0,87,75,8.05,FO,1615823982
kodiak,57.79,-152.4072,26.6,74,20,5.75,US,1615823983
havre-saint-pierre,50.2334,-63.5986,5.0,39,1,17.27,CA,1615823983
grindavik,63.8424,-22.4338,42.8,87,75,37.98,IS,1615823983
halifax,44.6453,-63.5724,19.4,49,75,16.11,CA,1615823731
colatina,-19.5394,-40.6306,77.0,71,24,4.12,BR,1615823984
longyearbyen,78.2186,15.6401,-4.0,77,40,10.36,SJ,1615823984
chuy,-33.6971,-53.4616,76.82,59,6,9.95,UY,1615823984
glenwood springs,41.5425,-87.6023,34.0,40,90,19.57,US,1615823985
arlit,18.7369,7.3853,96.89,4,65,4.7,NE,1615823985
goderich,43.7501,-81.7165,26.6,39,0,12.66,CA,1615823985
amudat,1.95,34.95,82.26,32,95,14.0,UG,1615823986
katsuura,35.1333,140.3,53.6,32,0,2.3,JP,1615823986
coquimbo,-29.9533,-71.3436,62.6,72,90,8.05,CL,1615823986
nemuro,43.3236,145.575,32.94,82,69,17.87,JP,1615823987
lompoc,34.6391,-120.4579,44.6,81,75,8.05,US,1615823987
vincennes,48.85,2.4333,51.01,71,0,11.5,FR,1615823987
poum,-20.2333,164.0167,78.64,78,0,11.43,NC,1615823988
rorvik,64.8621,11.2373,39.2,70,75,8.05,NO,1615823988
scottsbluff,41.8666,-103.6672,28.99,86,90,6.91,US,1615823749
rawson,-43.3002,-65.1023,83.03,33,57,11.23,AR,1615823989
horsham,51.064,-0.3272,55.0,76,75,12.66,GB,1615823989
inongo,-1.95,18.2667,81.63,75,100,3.83,CD,1615823989
mumford,5.2618,-0.759,84.04,68,66,16.33,GH,1615823990
sambava,-14.2667,50.1667,79.18,86,100,11.16,MG,1615823990
dingle,10.9995,122.6711,75.83,93,59,1.54,PH,1615823990
larap,14.299,122.6504,75.49,93,58,3.76,PH,1615823991
praia da vitoria,14.9215,-23.5087,84.2,37,0,18.41,CV,1615823991
wyndham,37.6985,-77.6125,46.0,22,1,7.49,US,1615823991
zhezkazgan,47.8043,67.7144,7.43,84,100,6.67,KZ,1615823992
marsh harbour,53.6512,-1.8078,54.0,79,79,1.99,GB,1615823992
zima,53.9202,102.0442,8.08,87,100,0.65,RU,1615823992
luau,-10.7073,22.2247,72.39,89,100,2.89,AO,1615823993
chik,54.9928,82.4311,8.6,66,0,8.95,RU,1615823993
vestmanna,62.1564,-7.1664,41.0,87,75,8.05,FO,1615823993
nishihara,26.1842,127.7558,68.0,73,20,5.75,JP,1615823994
clyde river,41.3042,-82.9752,35.01,43,96,1.99,US,1615823994
lorengau,-2.0226,147.2712,82.51,67,88,6.06,PG,1615823994
north augusta,50.3333,3.6667,48.99,66,75,20.71,FR,1615823995
arraial do cabo,-22.8362,-46.646,82.4,57,40,4.61,BR,1615823995
touros,-5.1989,-35.4608,87.8,58,75,10.36,BR,1615823995
winneba,5.3511,-0.6231,87.8,58,20,16.11,GH,1615823996
paamiut,61.994,-49.6678,28.36,94,100,18.48,GL,1615823996
sal rei,32.5694,35.9119,66.2,63,0,9.22,JO,1615823996
portland,45.5234,-122.6762,37.0,80,20,1.97,US,1615823546
karatau,43.1667,70.4667,24.33,82,100,5.95,KZ,1615823997
north bend,50.3333,3.6667,48.99,66,75,20.71,FR,1615823995
fernie,49.5,-115.0687,41.0,86,100,1.14,CA,1615823997
minsk mazowiecki,53.9,27.5667,41.0,52,0,4.47,BY,1615823997
port augusta,-7.0349,29.7638,78.4,68,0,2.1,CD,1615823998
krasnoselkup,65.7,82.4667,17.53,95,100,8.16,RU,1615823998
abu samrah,24.6,72.7,65.89,20,0,4.85,IN,1615823998
silver city,34.5348,-93.5102,55.0,87,75,9.64,US,1615823999
ballina,-28.8667,153.5667,71.6,60,100,13.8,AU,1615823999
nanortalik,60.1432,-45.2371,32.92,86,100,6.35,GL,1615823999
inhambane,-23.865,35.3833,86.0,62,40,12.66,MZ,1615824000
angren,41.0167,70.1436,35.04,74,100,2.84,UZ,1615824000
mahebourg,-20.4081,57.7,78.8,89,40,8.05,MU,1615824000
sooke,48.3746,-123.7276,37.4,72,60,8.05,CA,1615824001
clarence town,42.9767,-78.592,28.0,39,20,8.05,US,1615824001
chicama,-7.8447,-79.1469,71.6,88,37,5.75,PE,1615824002
chupaca,-12.0667,-75.2833,57.0,71,92,5.44,PE,1615824004
basco,20.4487,121.9702,76.17,79,71,20.18,PH,1615824005
sao joao da barra,20.5113,76.2129,81.88,18,16,5.28,IN,1615824006
san pedro,13.3034,-4.8956,99.41,10,0,10.02,ML,1615823857
barrow,71.2906,-156.7887,-2.2,78,90,10.36,US,1615824006
bodden town,51.1954,-2.5161,54.0,71,40,18.41,GB,1615824007
praia,14.9215,-23.5087,84.2,37,0,18.41,CV,1615824008
talnakh,69.4865,88.3972,-31.2,98,7,0.4,RU,1615824008
garissa,-0.4536,39.6401,93.13,32,52,8.66,KE,1615824009
grand river south east,38.8755,-109.5012,39.99,69,1,6.91,US,1615824010
ponta do sol,38.7333,-28.2667,62.6,88,40,9.22,PT,1615824010
marsa matruh,35.8792,14.4953,59.0,55,20,26.46,MT,1615824011
buta,2.7858,24.73,86.65,51,28,2.3,CD,1615824011
laela,-8.5667,32.05,65.41,78,0,1.23,TZ,1615824011
margate,51.3813,1.3862,51.01,56,62,3.0,GB,1615824012
crateus,-5.1783,-40.6775,89.24,48,67,4.74,BR,1615824012
alexandria,31.2156,29.9553,64.4,68,40,5.75,EG,1615823714
vao,-22.6667,167.4833,75.88,81,1,13.13,NC,1615824013
manasa,24.4837,75.2687,80.96,15,14,5.28,IN,1615824013
sept-iles,50.2001,-66.3821,6.01,39,20,18.41,CA,1615823737
kulhudhuffushi,6.6221,73.07,83.48,71,37,8.05,MV,1615824013
sibu,2.3,111.8167,77.0,94,40,5.75,MY,1615824014
lusambo,-4.9667,23.45,86.63,56,62,1.99,CD,1615824014
trofors,65.5333,13.4063,37.4,65,40,4.61,NO,1615824014
chegdomyn,51.1167,133.0167,30.38,96,100,3.42,RU,1615824015
mananara,-16.1667,49.7667,76.68,91,15,4.92,MG,1615824015
ransang,8.9603,117.5828,79.14,84,8,1.12,PH,1615824015
espanola,35.9911,-106.0806,41.0,52,1,3.44,US,1615824016
akureyri,65.6835,-18.0878,26.6,86,0,4.61,IS,1615824016
gravdal,68.1214,13.5031,37.4,65,20,4.61,NO,1615824016
zhanakorgan,43.9098,67.2495,23.34,78,100,9.89,KZ,1615824017
mugur-aksy,50.35,90.5,8.17,68,79,3.91,RU,1615824017
naze,28.3667,129.4833,62.51,74,0,12.59,JP,1615824018
kieta,-6.2167,155.6333,76.78,76,59,3.44,PG,1615824018
west odessa,31.8024,-97.0917,68.0,34,1,11.5,US,1615824018
port elgin,-7.0349,29.7638,78.4,68,0,2.1,CD,1615823941
port blair,-7.0349,29.7638,78.4,68,0,2.1,CD,1615823972
fuzhou,26.0614,119.3061,57.2,94,0,0.76,CN,1615824019
bilibino,68.0546,166.4372,-21.69,99,96,1.52,RU,1615824019
bezhta,42.1338,46.1283,25.12,97,99,2.26,RU,1615824020
codrington,-38.2667,141.9667,58.55,82,75,8.5,AU,1615824020
gizo,-8.103,156.8419,81.66,70,98,7.54,SB,1615824020
ahipara,-35.1667,173.1667,60.94,93,90,3.13,NZ,1615824021
fortuna,40.5982,-124.1573,45.0,75,20,6.91,US,1615824021
virginia beach,37.5481,-77.4467,46.4,19,75,8.05,US,1615824021
iqaluit,63.7506,-68.5145,-20.0,63,40,18.41,CA,1615824022
beloha,-25.1667,45.05,77.52,75,0,16.98,MG,1615824022
tual,-5.6667,132.75,83.59,71,88,3.09,ID,1615824022
zaria,11.1113,7.7227,98.53,11,52,5.75,NG,1615824023
berlevag,70.8578,29.0864,30.2,64,75,18.41,NO,1615824023
saint-denis,48.9167,2.3333,48.99,71,0,11.5,FR,1615824023
kruisfontein,-34.0033,24.7314,70.0,82,44,11.01,ZA,1615824024
pombas,17.1503,-25.0201,78.8,47,20,21.85,CV,1615824024
wajir,1.7471,40.0573,96.8,34,75,17.27,KE,1615824024
cabedelo,-6.9811,-34.8339,87.8,66,40,13.8,BR,1615824025
tchibanga,-2.85,11.0333,72.5,96,100,3.22,GA,1615824025
petukhovo,55.0692,67.9019,16.11,86,95,12.68,RU,1615824025
port hedland,-7.0349,29.7638,78.4,68,0,2.1,CD,1615823941
luderitz,-26.6481,15.1594,71.71,62,0,29.1,NA,1615824026
heihe,50.2441,127.4902,23.0,68,40,20.13,CN,1615824026
bambous virieux,-20.2567,57.4061,80.01,89,40,8.05,MU,1615824026
whitianga,-36.8333,175.7,62.01,95,14,3.2,NZ,1615824027
lodja,-3.4833,23.4333,84.07,59,100,1.16,CD,1615824027
starychi,49.98,23.5585,39.2,75,90,8.95,UA,1615824027
severo-kurilsk,50.6789,156.125,36.1,98,100,20.92,RU,1615824028
lianzhou,24.7811,112.3825,69.48,87,43,3.09,CN,1615824028
sobolevo,54.4299,31.8996,33.93,84,100,4.27,RU,1615824028
piacabucu,-10.4056,-36.4344,85.35,59,26,11.88,BR,1615824029
kefamenanu,-9.4467,124.4781,71.85,93,88,1.25,ID,1615824029
gat,31.61,34.7642,66.0,100,0,7.74,IL,1615824029
kontagora,10.3999,5.4695,102.61,10,0,4.43,NG,1615824030
port hawkesbury,-7.0349,29.7638,78.4,68,0,2.1,CD,1615823941
hobyo,5.3505,48.5268,80.42,78,98,17.76,SO,1615824030
chokurdakh,70.6333,147.9167,-11.7,89,100,5.99,RU,1615824030
shingu,33.7333,135.9833,47.43,66,79,7.18,JP,1615824031
pacific grove,38.482,-90.7415,50.0,21,93,7.31,US,1615824031
butaritari,3.0707,172.7902,80.51,78,100,10.18,KI,1615824031
madaoua,14.073,5.96,102.11,10,15,8.48,NE,1615824032
egvekinot,66.3167,-179.1667,-0.98,95,99,4.07,RU,1615824032
solntsevo,51.4185,36.7499,39.2,75,90,8.95,RU,1615824032
mugumu,-1.85,34.7,67.82,67,74,3.31,TZ,1615824033
askim,59.5833,11.1629,48.2,43,0,9.22,NO,1615824033
moron,-34.6534,-58.6198,84.99,45,82,4.0,AR,1615824033
bocholt,51.8333,6.6,48.0,54,43,19.93,DE,1615824034
chunskiy,56.0815,99.6342,10.49,95,100,2.37,RU,1615824034
ixtapa,20.7,-105.2,62.6,82,1,4.61,MX,1615824034
moussoro,13.6408,16.4901,107.2,6,29,9.37,TD,1615824018
smidovich,48.6,133.8167,29.53,96,100,12.37,RU,1615824035
cabo san lucas,-8.2833,-35.0333,82.4,57,40,13.8,BR,1615824035
vvedenskoye,55.4753,65.0847,17.33,84,91,11.23,RU,1615824035
inhapim,-19.5492,-42.12,78.49,75,72,5.06,BR,1615824036
padang,-0.9492,100.3543,77.0,100,75,6.91,ID,1615824036
kentau,43.5206,68.5094,22.3,74,100,9.15,KZ,1615824036
husavik,66.0449,-17.3389,26.6,86,0,4.61,IS,1615824037
lannion,48.75,-3.4167,53.6,82,90,11.5,FR,1615824037
guerrero negro,17.6667,-100.0,81.9,39,0,2.77,MX,1615824037
samaipata,-18.15,-63.8667,66.7,77,99,2.46,BO,1615824038
santa cruz,17.486,120.4348,78.21,80,96,6.38,PH,1615824038
letka,59.6011,49.4232,33.04,96,100,10.8,RU,1615824038
pimentel,-6.8367,-79.9342,78.8,65,0,6.91,PE,1615824039
sirnak,37.5228,42.4594,40.66,86,100,6.35,TR,1615824039
tura,25.5198,90.2201,71.22,31,0,3.15,IN,1615824039
georgetown,5.4112,100.3354,86.0,74,20,3.44,MY,1615824040
labuhan,-6.8844,112.2051,79.21,81,46,2.59,ID,1615824040
rocha,-34.4833,-54.3333,80.4,52,0,8.5,UY,1615824040
lichinga,-13.3128,35.2406,64.4,94,75,5.75,MZ,1615824041
ponorogo,-7.8685,111.462,75.81,88,100,3.44,ID,1615824041
meulaboh,4.1363,96.1285,79.97,79,100,1.23,ID,1615824041
ouadda,8.0777,22.4007,92.48,26,100,5.37,CF,1615824042
aginskoye,51.1,114.53,7.21,85,0,8.68,RU,1615824042
hervey bay,33.4982,-93.7771,57.0,88,40,9.22,US,1615824042
balakhta,55.38,91.6,10.67,89,100,3.6,RU,1615824043
belyy yar,55.8402,32.9419,30.76,91,78,5.21,RU,1615824043
lagoa,39.05,-27.9833,60.26,86,16,8.95,PT,1615824043
ust-ishim,57.6935,71.1665,18.43,93,100,6.85,RU,1615824043
charyshskoye,51.3978,83.5598,8.51,95,100,0.92,RU,1615824044
jalu,29.0331,21.5482,67.64,37,1,20.51,LY,1615824044
kavaratti,10.5669,72.642,83.73,69,77,9.78,IN,1615824045
araouane,18.9048,-3.5265,91.8,12,0,7.65,ML,1615824045
mareeba,-17.0,145.4333,77.0,83,40,4.61,AU,1615824045
zhigansk,66.7697,123.3711,-11.96,97,100,11.43,RU,1615824046
osakarovka,50.565,72.5692,-4.92,94,0,3.33,KZ,1615824046
hasaki,35.7333,140.8333,39.2,87,40,2.3,JP,1615824046
chiredzi,-21.05,31.6667,77.54,56,0,5.44,ZW,1615824047
zheleznodorozhnyy,55.7503,38.0042,36.0,93,90,8.95,RU,1615824047
port hardy,-7.0349,29.7638,78.4,68,0,2.1,CD,1615823963
trebinje,42.7119,18.3442,48.2,46,20,16.11,BA,1615824047
upernavik,72.7868,-56.1549,-5.06,94,89,11.81,GL,1615824048
taozhuang,34.85,117.3333,55.71,59,68,10.76,CN,1615824048
harper,4.375,-7.7169,83.08,72,96,10.11,LR,1615824048
merauke,-8.4667,140.3333,80.64,76,100,2.82,ID,1615824049
corner brook,33.8004,-86.9422,64.0,86,100,3.0,US,1615824049
birao,10.2849,22.7882,102.24,12,56,4.25,CF,1615824049
fort-shevchenko,44.5086,50.263,37.58,49,12,19.19,KZ,1615824050
vardo,70.3705,31.1107,32.0,74,75,18.41,NO,1615824050
akyab,20.15,92.9,76.87,70,0,8.14,MM,1615824050
sibolga,1.7427,98.7792,78.19,88,100,3.44,ID,1615824051
chimbote,-9.0853,-78.5783,79.12,63,62,10.89,PE,1615824051
flin flon,48.4982,6.6557,48.2,57,40,16.11,FR,1615824052
corrales,35.2378,-106.6067,46.0,52,44,4.0,US,1615823789
sao filipe,20.5113,76.2129,81.88,18,16,5.28,IN,1615824052
fredericton,45.9454,-66.6656,10.4,40,75,16.11,CA,1615823828
port-gentil,-0.7193,8.7815,86.0,74,40,5.75,GA,1615824053
formosa do rio preto,-26.1775,-58.1781,93.2,43,0,5.75,AR,1615823790
pevek,69.7008,170.3133,-5.85,97,100,9.48,RU,1615824053
pierre,44.3683,-100.351,34.0,86,90,14.97,US,1615824005
buraydah,26.326,43.975,86.0,30,40,5.75,SA,1615824003
sant feliu de guixols,47.45,24.9,34.0,87,100,1.99,RO,1615823962
sagone,42.1155,8.6969,55.4,62,75,11.5,FR,1615824054
kang,-23.6752,22.7876,83.21,32,22,3.89,BW,1615824054
atar,20.5169,-13.0499,93.92,8,0,6.35,MR,1615824054
narsaq,60.9167,-46.05,41.0,33,75,25.32,GL,1615824055
yulara,-25.2406,130.9889,62.6,29,0,5.75,AU,1615824055
geraldton,-28.7667,114.6,82.4,23,100,12.66,AU,1615824056
xian,34.2583,108.9286,59.0,88,26,6.71,CN,1615824056
houma,29.5958,-90.7195,78.01,83,75,8.05,US,1615824056
keflavik,64.0049,-22.5624,42.8,87,75,37.98,IS,1615824057
northam,51.0333,-4.2167,51.01,91,44,7.0,GB,1615824057
moose factory,43.6558,-110.7183,33.01,80,1,6.91,US,1615824057
lufilufi,-13.8745,-171.5986,73.4,100,20,8.46,WS,1615823860
atambua,-9.1061,124.8925,74.25,86,82,2.37,ID,1615824058
jaisalmer,26.9147,70.9181,77.77,18,5,3.85,IN,1615824058
puerto del rosario,36.5939,-6.233,73.4,40,0,3.44,ES,1615823933
ondjiva,-17.0667,15.7333,86.0,48,40,2.3,AO,1615824058
yakeshi,49.2833,120.7333,6.17,79,34,14.34,CN,1615824059
carnarvon,-24.8667,113.6333,78.8,73,90,5.75,AU,1615824059
salihorsk,52.7876,27.5415,35.87,81,100,4.99,BY,1615824059
guanica,17.9716,-66.908,84.99,49,21,8.01,PR,1615824060
ratnagiri,16.9833,73.3,78.42,70,0,6.71,IN,1615824060
acajutla,13.5928,-89.8275,80.01,65,20,6.71,SV,1615824060
warri,5.5167,5.75,85.66,67,100,7.67,NG,1615824061
mabay,6.0577,124.4666,79.09,83,19,3.27,PH,1615824061
novo horizonte,22.7847,-82.2251,78.8,69,20,10.36,CU,1615824062
boissevain,49.2306,-100.0559,35.01,55,1,12.66,CA,1615824062
fort nelson,52.6517,6.3861,46.99,77,9,5.99,NL,1615824062
bambanglipuro,-7.95,110.2833,77.97,79,100,1.14,ID,1615824063
dwarka,22.2394,68.9678,77.65,69,0,13.2,IN,1615824063
mountain home,13.3667,-81.3667,78.71,74,23,15.73,CO,1615824064
anadyr,64.75,177.4833,-7.01,77,0,17.9,RU,1615824022
cali,3.4372,-76.5225,73.0,62,85,2.98,CO,1615824064
svetlogorsk,52.6333,29.7333,35.53,86,100,4.45,BY,1615824064
mount isa,53.6597,-1.8537,52.0,79,79,1.99,GB,1615824065
skjervoy,70.0311,20.9714,32.0,86,75,4.61,NO,1615824065
roma,43.2128,-75.4557,30.2,22,1,12.66,US,1615824004
abha,18.2164,42.5053,71.6,46,0,10.36,SA,1615824065
encruzilhada do sul,-15.5314,-40.9094,86.56,33,91,5.48,BR,1615824066
mitsamiouli,-11.3847,43.2844,82.81,73,64,4.99,KM,1615824066
okhotsk,59.3833,143.3,14.61,95,100,7.38,RU,1615824066
kerchevskiy,59.946,56.2884,23.63,94,100,8.03,RU,1615824067
marfino,55.7028,37.3822,37.4,93,75,11.18,RU,1615824067
bhatkal,13.9667,74.5667,80.51,79,0,4.34,IN,1615824067
black river,31.0093,-85.7444,73.0,78,40,3.44,US,1615824068
tahe,52.3333,124.7333,9.12,80,100,19.24,CN,1615824068
varadero,23.1536,-81.2514,78.8,69,20,8.05,CU,1615824001
mackay,-21.15,149.2,72.0,94,29,3.44,AU,1615824069
concarneau,47.875,-3.9225,59.0,71,75,14.97,FR,1615824069
bandarbeyla,9.4942,50.8122,79.34,79,83,15.55,SO,1615824069
alice springs,27.7523,-98.0697,64.4,82,90,4.61,US,1615824011
faanui,-16.4833,-151.75,82.29,77,1,13.42,PF,1615824070
sola,-13.8833,167.55,77.0,100,20,6.71,VU,1615824070
waspan,14.7419,-83.9717,82.4,74,20,5.75,NI,1615824070
panaba,21.2833,-88.2667,86.41,49,0,13.62,MX,1615824071
muroto,33.2833,134.15,58.35,65,54,13.65,JP,1615824034
srednekolymsk,67.45,153.6833,-9.29,80,95,3.47,RU,1615824071
kihei,20.785,-156.4656,66.0,90,5,5.99,US,1615823472
singkawang,0.9,109.0,77.09,90,78,3.67,ID,1615824072
kaeo,-35.1,173.7833,60.01,94,68,3.29,NZ,1615824072
bubaque,11.2833,-15.8333,79.45,58,0,14.16,GW,1615824072
flagstaff,35.1981,-111.6513,41.0,74,1,8.05,US,1615824063
sterling,39.0062,-77.4286,39.99,25,75,12.66,US,1615823990
laguna,38.421,-121.4238,44.01,81,75,8.05,US,1615824073
buala,-8.145,159.5921,77.74,71,100,2.24,SB,1615824073
san carlos de bariloche,13.3034,-4.8956,99.41,10,0,10.02,ML,1615823857
ulverstone,-41.15,146.1667,59.0,87,70,7.0,AU,1615824074
maple creek,43.8501,-79.5163,26.01,25,0,7.0,CA,1615824003
sarkikaraagac,38.0794,31.3664,46.53,78,57,7.92,TR,1615824074
asau,46.4333,26.4,41.0,93,90,12.66,RO,1615824075
kaduqli,11.0167,29.7167,97.32,11,78,1.48,SD,1615824075
tabou,4.423,-7.3528,82.49,74,99,9.98,CI,1615824075
launceston,-41.45,147.1667,55.4,62,90,13.8,AU,1615824076
palmerston,-12.486,130.9833,80.6,83,69,3.44,AU,1615824076
novikovo,51.1537,37.8879,34.18,85,100,11.16,RU,1615824076
salinopolis,-0.6136,-47.3561,81.7,82,89,7.29,BR,1615824077
juneau,58.3019,-134.4197,28.99,80,90,12.66,US,1615823856
chubbuck,42.9208,-112.4661,45.0,74,1,2.62,US,1615824077
cootamundra,-34.65,148.0333,59.0,65,0,8.01,AU,1615824078
saldanha,-33.0117,17.9442,64.74,76,0,24.2,ZA,1615824078
busok,6.5061,124.5989,75.54,94,66,1.74,PH,1615824078
broome,42.2506,-75.833,24.01,45,1,17.27,US,1615824079
cochrane,51.1834,-114.4687,32.0,59,90,21.85,CA,1615824039
cayenne,4.9333,-52.3333,86.0,70,40,13.8,GF,1615824079
maniitsoq,65.4167,-52.9,21.02,82,100,31.52,GL,1615824079
chara,56.9064,118.2631,-7.55,61,0,2.44,RU,1615824080
peace river,48.3083,38.0721,36.57,84,96,10.92,UA,1615824080
maxixe,-23.8597,35.3472,86.0,62,40,12.66,MZ,1615824080
miranda de ebro,3.2499,-76.2281,68.85,94,100,0.65,CO,1615824081
nome,64.5011,-165.4064,19.4,86,90,16.11,US,1615824081
kropotkin,45.4375,40.5756,39.34,79,95,15.64,RU,1615824081
alofi,-19.0595,-169.9187,71.6,100,75,3.44,NU,1615824082
kommunarka,55.5695,37.4893,37.4,93,75,8.95,RU,1615824082
kashan,33.9831,51.4364,56.7,35,25,5.68,IR,1615824082
yoichi,43.2039,140.7703,27.0,73,0,7.47,JP,1615823882
bangkalan,-7.0455,112.7351,80.6,89,40,3.44,ID,1615824083
omsukchan,62.5333,155.8,1.4,94,100,7.94,RU,1615824083
oriximina,-1.7656,-55.8661,90.52,51,27,3.53,BR,1615824083
san patricio,13.3034,-4.8956,99.41,10,0,10.02,ML,1615823857
coahuayana,18.7333,-103.6833,75.2,53,1,2.39,MX,1615824084
ilulissat,69.2167,-51.1,15.8,67,75,6.91,GL,1615824084
turukhansk,65.8167,87.9833,10.62,96,99,5.46,RU,1615824085
malanje,-9.5402,16.341,75.2,83,90,11.5,AO,1615824085
vengerovo,55.6848,76.7471,6.06,97,99,9.33,RU,1615824085
najran,17.4924,44.1277,86.0,17,0,11.5,SA,1615824086
griffith,41.5284,-87.4237,34.0,40,90,14.97,US,1615824086
rundu,-17.9333,19.7667,78.48,56,87,3.31,NA,1615823846
wawa,9.9022,4.4192,99.55,18,37,5.7,NG,1615824087
camoapa,12.3839,-85.5116,84.2,61,40,6.91,NI,1615824087
ruhengeri,-1.4998,29.635,62.51,93,81,2.53,RW,1615824087
montevideo,-34.8335,-56.1674,84.99,53,0,11.5,UY,1615824088
gopamau,27.55,80.2833,77.11,22,43,6.46,IN,1615824088
evensk,61.95,159.2333,-1.41,93,100,2.73,RU,1615824088
fare,-16.7,-151.0167,81.88,76,68,12.68,PF,1615824089
wakefield,53.6809,-1.499,54.0,53,88,1.01,GB,1615823941
gopalpur,19.2667,84.9167,76.82,86,0,9.75,IN,1615824089
porto novo,41.1496,-8.611,66.99,52,0,12.66,PT,1615824010
santiago de cao,-33.4569,-70.6483,71.01,100,90,4.61,CL,1615824089
gorontalo,0.5412,123.0595,76.32,93,83,2.8,ID,1615824090
lac du bonnet,41.6356,19.7131,46.4,71,75,9.22,AL,1615824090
buin,-33.7333,-70.75,64.99,100,90,4.61,CL,1615824090
datong,40.0936,113.2914,30.29,21,0,6.98,CN,1615824091
moree,-29.4667,149.85,69.8,78,90,5.75,AU,1615824091
luancheng,37.8792,114.6517,44.6,57,0,2.24,CN,1615824091
dongsheng,39.8161,109.9776,30.38,20,0,14.63,CN,1615824092
kattivakkam,13.2167,80.3167,80.6,78,20,6.91,IN,1615824092
prince rupert,52.9669,-108.3847,35.6,75,1,8.05,CA,1615824093
nelson bay,-41.2833,173.2833,64.99,88,100,5.01,NZ,1615823985
san andres,13.3034,-4.8956,99.41,10,0,10.02,ML,1615823857
krasnoturinsk,59.7666,60.2086,15.66,92,56,5.7,RU,1615824093
dangriga,16.9692,-88.2321,82.99,74,40,8.05,BZ,1615824093
berbera,10.4396,45.0143,80.24,74,55,13.33,SO,1615824094
barraute,48.4335,-77.6328,8.01,71,20,4.61,CA,1615824094
esna,25.2934,32.554,89.6,12,0,4.61,EG,1615824094
yerkoy,39.6381,34.4672,49.01,79,98,8.03,TR,1615824095
ringebu,61.5167,10.1667,35.1,85,66,3.85,NO,1615824095
dali,25.7,100.1833,52.93,54,0,6.8,CN,1615824095
umea,63.8284,20.2597,39.2,65,0,2.3,SE,1615824096
mahanje,-9.9333,35.3333,69.21,93,90,3.29,TZ,1615824096
botou,38.0667,116.5667,44.96,17,0,9.84,CN,1615824096
byron bay,44.0327,-92.6455,28.99,100,90,5.75,US,1615824097
joshimath,30.5667,79.5667,51.91,53,100,4.47,IN,1615824097
dzaoudzi,-12.7887,45.2699,84.2,74,20,8.05,YT,1615824097
taganak,6.0833,118.3,82.4,83,40,10.36,PH,1615824098
lewistown,40.5992,-77.5714,37.99,21,1,10.36,US,1615824098
pacifica,37.6138,-122.4869,48.2,61,40,25.32,US,1615824098
vyartsilya,62.1764,30.693,32.77,98,100,1.92,RU,1615824099
alice,27.7523,-98.0697,66.2,77,90,5.75,US,1615824099
kathu,7.9178,98.3332,82.4,74,20,4.61,TH,1615824099
pasni,25.2631,63.471,75.78,75,0,12.19,PK,1615824100
aden,12.7794,45.0367,79.18,69,1,18.19,YE,1615823946
viedma,-40.8135,-62.9967,87.64,28,10,15.19,AR,1615823848
wuwei,37.9281,102.6414,41.13,27,90,3.98,CN,1615824100
cutro,39.0353,16.9819,59.0,26,0,11.5,IT,1615824100
pangoa,-12.1167,-73.0,76.08,77,95,2.15,PE,1615824101
katesh,-4.5167,35.3833,63.45,75,4,4.21,TZ,1615824101
inirida,3.8653,-67.9239,87.51,62,76,3.67,CO,1615824101
vila,42.0304,-8.1588,68.0,35,33,11.99,PT,1615824058
beni,0.5,29.4667,78.55,48,90,2.24,CD,1615824102
isiolo,0.3546,37.5822,77.65,52,70,9.53,KE,1615824102
jiayuguan,39.8167,98.3,33.35,19,100,7.61,CN,1615824102
hami,42.8,93.45,42.91,32,0,2.1,CN,1615824103
varena,54.2167,24.5667,43.0,65,75,2.3,LT,1615824103
lalitpur,27.6667,85.3333,62.6,59,20,6.91,NP,1615824103
zhuhai,22.2769,113.5678,73.99,88,20,9.22,CN,1615824104
octeville,49.6261,-1.6435,50.0,81,0,13.8,FR,1615824104
rio sereno,38.3,21.7833,53.6,62,75,9.22,GR,1615824104
ternate,0.8,127.4,80.85,79,17,5.37,ID,1615824105
miguel hidalgo,-5.0092,-38.704,89.01,45,62,5.64,BR,1615824105
gigmoto,13.7796,124.39,78.84,87,99,5.77,PH,1615824106
netishyn,50.34,26.6417,41.0,81,40,6.71,UA,1615824106
niksar,40.5917,36.9517,52.21,74,100,7.67,TR,1615824106
donskoye,45.4552,41.9741,35.6,93,75,11.18,RU,1615824107
pisco,-13.7,-76.2167,78.8,61,0,10.36,PE,1615824107
hendek,40.7994,30.7481,66.2,52,0,3.44,TR,1615824107
lichtenvoorde,51.9867,6.5667,48.0,70,31,11.01,NL,1615824108
tiksi,71.6872,128.8694,-20.02,90,98,11.3,RU,1615824108
japura,-0.3167,102.35,75.15,96,57,1.95,ID,1615824108
aswan,24.0934,32.907,87.62,8,100,8.99,EG,1615824109
celestun,20.8667,-90.4,82.13,63,5,8.55,MX,1615824109
hamilton,39.1834,-84.5333,36.0,44,90,11.5,US,1615824002
samarai,-10.6167,150.6667,81.19,76,100,4.88,PG,1615824109
anzio,41.4853,12.6179,60.01,43,0,10.0,IT,1615824110
ulaanbaatar,47.9077,106.8832,19.4,49,75,2.24,MN,1615824110
manokwari,-0.8667,134.0833,77.86,83,96,5.97,ID,1615824110
peniche,39.3558,-9.3811,66.0,43,60,11.99,PT,1615823825
duekoue,6.7472,-7.3496,95.95,31,37,2.08,CI,1615824111
opuwo,-18.0607,13.84,81.9,46,100,5.75,NA,1615824111
nyirpazony,47.9833,21.8,41.0,81,90,16.11,HU,1615824112
batagay-alyta,67.8006,130.4114,-12.8,97,100,5.14,RU,1615824112
iwanai,42.9744,140.5089,34.16,57,7,1.41,JP,1615824112
kanniyakumari,8.0833,77.5667,82.2,62,0,10.87,IN,1615824113
flinders,-34.5833,150.8552,57.99,79,3,1.01,AU,1615824113
hit,33.6416,42.8251,69.12,26,87,12.26,IQ,1615824113
klyuchi,52.2667,79.1667,5.36,95,78,7.81,RU,1615824114
benguela,-12.5763,13.4055,82.26,77,98,9.82,AO,1615824114
pedraza,10.1874,-74.915,93.92,37,27,10.38,CO,1615824114
colares,38.7992,-9.4469,70.0,40,0,8.05,PT,1615824115
teya,60.3778,92.6267,12.36,93,99,7.4,RU,1615824115
karasjok,69.4719,25.5112,30.2,86,75,8.05,NO,1615824115
birjand,32.8663,59.2211,60.8,13,0,9.22,IR,1615824116
ilorin,8.5,4.55,101.08,18,27,1.28,NG,1615824116
nizwa,22.9333,57.5333,75.79,28,26,5.55,OM,1615824116
lokosovo,61.1333,74.8167,18.43,94,100,8.84,RU,1615824117
moa,20.6569,-74.9403,78.69,61,46,11.07,CU,1615824117
arroyo,41.6096,-4.7969,60.01,47,0,6.91,ES,1615824117
lewiston,44.1003,-70.2148,14.0,40,1,24.16,US,1615823848
iberia,29.9502,-91.7507,77.0,78,90,19.57,US,1615824118
cooma,-36.2333,149.1333,44.6,100,0,5.75,AU,1615824118
kouango,4.9934,19.9619,88.72,53,81,4.74,CF,1615824118
suntar,62.1444,117.6319,14.23,92,100,8.37,RU,1615824119
providencia,28.7167,-111.5833,63.0,49,2,1.99,MX,1615824045
canto do buriti,-27.5868,-48.5862,84.0,74,20,11.5,BR,1615824119
tilichiki,60.4667,166.1,-8.19,87,41,3.74,RU,1615824119
dmitriyevka,54.75,55.3333,17.6,62,90,17.9,RU,1615824120
mayo,38.8876,-76.5119,39.99,35,1,16.11,US,1615824120
